{
"type": "FeatureCollection",
"name": "private",
"crs": { "type": "name", "properties": { "name": "urn:ogc:def:crs:EPSG::4269" } },
"features": [
{ "type": "Feature", "properties": { "uuid": 53, "type": "Jail", "operator": "Private", "capacity": 602, "facility_name": "River Correctional Center", "lat": 31.5971028, "lon": -91.5580974, "map_twp": 0, "map_private": 1, "map_prison": 0, "map_juvenile": 0, "jail_rated_capacity": 643, "GT_1000_beds": 0 }, "geometry": { "type": "Point", "coordinates": [ -91.5580974, 31.5971028 ] } },
{ "type": "Feature", "properties": { "uuid": 75, "type": "Jail", "operator": "Private", "capacity": 1094, "facility_name": "Pine Prairie ICE Processing Center", "lat": 30.7886352, "lon": -92.4228399, "map_twp": 0, "map_private": 1, "map_prison": 0, "map_juvenile": 0, "jail_rated_capacity": 98, "GT_1000_beds": 0 }, "geometry": { "type": "Point", "coordinates": [ -92.4228399, 30.7886352 ] } },
{ "type": "Feature", "properties": { "uuid": 76, "type": "Jail", "operator": "Private", "capacity": 1000, "facility_name": "South Louisiana ICE Processing Center", "lat": 30.4870342, "lon": -92.5818434, "map_twp": 0, "map_private": 1, "map_prison": 0, "map_juvenile": 0, "jail_rated_capacity": 98, "GT_1000_beds": 0 }, "geometry": { "type": "Point", "coordinates": [ -92.5818434, 30.4870342 ] } },
{ "type": "Feature", "properties": { "uuid": 88, "type": "Jail", "operator": "Private", "capacity": 1252, "facility_name": "Jackson Parish Correctional Center", "lat": 32.2152444, "lon": -92.715942, "map_twp": 0, "map_private": 1, "map_prison": 0, "map_juvenile": 0, "jail_rated_capacity": 1061, "GT_1000_beds": 1 }, "geometry": { "type": "Point", "coordinates": [ -92.715942, 32.2152444 ] } },
{ "type": "Feature", "properties": { "uuid": 108, "type": "Jail", "operator": "Private", "capacity": 755, "facility_name": "La Salle Correctional Center", "lat": 31.8446231, "lon": -92.2904605, "map_twp": 1, "map_private": 1, "map_prison": 0, "map_juvenile": 0, "jail_rated_capacity": 784, "GT_1000_beds": 0 }, "geometry": { "type": "Point", "coordinates": [ -92.2904605, 31.8446231 ] } },
{ "type": "Feature", "properties": { "uuid": 109, "type": "Jail", "operator": "Private", "capacity": 1160, "facility_name": "LaSalle ICE Processing Center", "lat": 31.70835874, "lon": -92.15161941, "map_twp": 0, "map_private": 1, "map_prison": 0, "map_juvenile": 0, "jail_rated_capacity": 784, "GT_1000_beds": 0 }, "geometry": { "type": "Point", "coordinates": [ -92.15161941, 31.70835874 ] } },
{ "type": "Feature", "properties": { "uuid": 117, "type": "Jail", "operator": "Private", "capacity": 898, "facility_name": "Madison Parish Correctional Center", "lat": 32.3932537, "lon": -91.2048858, "map_twp": 1, "map_private": 1, "map_prison": 0, "map_juvenile": 0, "jail_rated_capacity": 1172, "GT_1000_beds": 1 }, "geometry": { "type": "Point", "coordinates": [ -91.2048858, 32.3932537 ] } },
{ "type": "Feature", "properties": { "uuid": 119, "type": "Jail", "operator": "Private", "capacity": 289, "facility_name": "Bayou Correctional Center", "lat": 32.4084765, "lon": -91.1867771, "map_twp": 0, "map_private": 1, "map_prison": 0, "map_juvenile": 0, "jail_rated_capacity": 1172, "GT_1000_beds": 1 }, "geometry": { "type": "Point", "coordinates": [ -91.1867771, 32.4084765 ] } },
{ "type": "Feature", "properties": { "uuid": 136, "type": "Jail", "operator": "Private", "capacity": 1129, "facility_name": "Richwood Correctional Center", "lat": 32.4569764, "lon": -92.0799455, "map_twp": 1, "map_private": 1, "map_prison": 0, "map_juvenile": 0, "jail_rated_capacity": 2555, "GT_1000_beds": 1 }, "geometry": { "type": "Point", "coordinates": [ -92.0799455, 32.4569764 ] } },
{ "type": "Feature", "properties": { "uuid": 148, "type": "Jail", "operator": "Private", "capacity": 400, "facility_name": "Alexandria Staging Facility", "lat": 31.31743553, "lon": -92.53588982, "map_twp": 0, "map_private": 1, "map_prison": 0, "map_juvenile": 0, "jail_rated_capacity": 1168, "GT_1000_beds": 1 }, "geometry": { "type": "Point", "coordinates": [ -92.53588982, 31.31743553 ] } },
{ "type": "Feature", "properties": { "uuid": 218, "type": "Jail", "operator": "Private", "capacity": 1538, "facility_name": "Winn Correctional Center", "lat": 31.83835738, "lon": -92.79024291, "map_twp": 0, "map_private": 1, "map_prison": 0, "map_juvenile": 0, "jail_rated_capacity": 182, "GT_1000_beds": 0 }, "geometry": { "type": "Point", "coordinates": [ -92.79024291, 31.83835738 ] } }
]
}
